[
  {
    "url": "f8795674-06ce-44e6-8602-3c1f3aedc026.jpg",
    "title": "Thác Dray Sáp",
    "desc": "Thác nước nổi tiếng trong rừng nhiệt đới",
    "code": 3,
    "latitude": 12.5378596,
    "longitude": 107.8900766
  },
  {
    "url": "76e6f65a-4fbc-4280-8778-1a6328de5828.jpg",
    "title": "Hồ Ea Kao",
    "desc": "Hồ",
    "code": 3,
    "latitude": 12.6089845,
    "longitude": 108.0465286
  },
  {
    "url": "f6e41ad0-2964-4ded-acd0-d27dce30b068.jpg",
    "title": "Thác Gia Long",
    "desc": "Thác nước cao 30m trên sông Serepôk",
    "code": 3,
    "latitude": 12.5285586,
    "longitude": 107.9150591
  },
  {
    "url": "4d8fb49a-6c47-4580-9311-8eaaad71c59d.jpg",
    "title": "Khu Bảo tồn Lan rừng vườn Troh Bư - Buôn Đôn - Việt Nam",
    "desc": "Khu bảo tồn thiên nhiên",
    "code": 3,
    "latitude": 12.7098689,
    "longitude": 107.958772
  },
  {
    "url": "22e78024-95cc-43f5-87e6-1c4e85a7124f.jpg",
    "title": "Chùa Sắc Tứ Khải Đoan",
    "desc": "Đền và kiến trúc",
    "code": 3,
    "latitude": 12.6820151,
    "longitude": 108.039015
  },
  {
    "url": "5b5350d0-7f34-420d-b85d-663cb7bbad8c.jpg",
    "title": "Nhà Thờ Chính Tòa Giáo Phận Ban Mê Thuột",
    "desc": "Nhà thờ cơ Đốc giáo",
    "code": 3,
    "latitude": 12.6807545,
    "longitude": 108.0452066
  },
  {
    "url": "f42b9f43-0ba5-4ba4-b823-902a8f8fdd3c.jpg",
    "title": "Thác Trinh Nữ",
    "desc": "Thác",
    "code": 3,
    "latitude": 12.5710673,
    "longitude": 107.9043674
  },
  {
    "url": "731c5375-8a78-43cd-9395-ab06564b9eb6.jpg",
    "title": "Nhà đày Buôn Ma Thuột",
    "desc": "Địa điểm lịch sử",
    "code": 3,
    "latitude": 12.6767933,
    "longitude": 108.0471656
  }
]