[
  {
    "url": "72d0d2b3-10ac-4649-923b-36a4bc683812.jpg",
    "title": "Quan Công Miếu",
    "desc": "Đền",
    "code": 24,
    "latitude": 15.8775421,
    "longitude": 108.3313724
  },
  {
    "url": "4de28bea-9bb8-4ada-921f-95e0a288031e.jpg",
    "title": "Phố Cổ Hội An",
    "desc": "Khu di tích nhộn nhịp có cảng thị được bảo tồn và trung tâm thương mại phản ánh sự ảnh hưởng từ nước ngoài.",
    "code": 24,
    "latitude": 15.878208,
    "longitude": 108.328219
  },
  {
    "url": "2316c0e4-24dd-4a99-89aa-0f0643410628.jpg",
    "title": "Nhà Cổ Tấn Ký",
    "desc": "Ngôi nhà cổ của thương gia, có từ TK 18 được bảo tồn, nay là nơi tham quan có HDV với các phòng chứa cổ vật & cửa hàng quà tặng.",
    "code": 24,
    "latitude": 15.8764821,
    "longitude": 108.3277659
  },
  {
    "url": "5ff3043b-c51a-40e9-ae63-245e1752f396.jpg",
    "title": "Chùa Cầu Hội An Quảng Nam",
    "desc": "Cây cầu gỗ từ thế kỷ 18 được chạm khắc tinh xảo & có lối đi dành cho người đi bộ.",
    "code": 24,
    "latitude": 15.8771182,
    "longitude": 108.326104
  },
  {
    "url": "098b2cc7-d919-4e63-9605-3cba9ba0ae0d.jpg",
    "title": "Bãi biển An Bàng",
    "desc": "Bãi biển yên tĩnh, rợp bóng cây với bãi cát trắng, mái che nắng, ghế dài và quán ăn.",
    "code": 24,
    "latitude": 15.9136072,
    "longitude": 108.3406489
  }
]