[
  {
    "url": "21256423-d3f1-4db5-9c9c-7475827da79c.jpg",
    "title": "Thung Lũng Mường Hoa",
    "desc": "Thung lũng xinh đẹp nổi tiếng với những lối đi leo bộ xuyên qua những thửa ruộng bậc thang & làng cổ.",
    "code": 39,
    "latitude": 22.3282938,
    "longitude": 103.8476331
  },
  {
    "url": "a8fe4dfb-676c-46f6-97f8-08931e61eb06.jpg",
    "title": "Vườn hoa Hàm Rồng",
    "desc": "Vườn hoa trên đỉnh núi với các thảm hoa khoe sắc, cây cảnh tạo hình nghệ thuật và khu ngắm toàn cảnh Sa Pa.",
    "code": 39,
    "latitude": 22.3363608,
    "longitude": 103.8437852
  },
  {
    "url": "0a2b11d5-e247-4ddc-b156-6cf291fc904f.jpg",
    "title": "Nhà Thờ Đá Sapa",
    "desc": "Được người Pháp xây dựng năm 1895, nhà thờ bằng đá này có tháp chuông và kiến trúc Gothic La Mã.",
    "code": 39,
    "latitude": 22.3351709,
    "longitude": 103.8422108
  },
  {
    "url": "e471daa9-e321-490f-9578-82278f7666cc.jpg",
    "title": "Sapa Museum",
    "desc": "Bảo tàng với kiến trúc truyền thống có cửa hàng mỹ nghệ & lưu niệm bán đồ thủ công được làm tại địa phương.",
    "code": 39,
    "latitude": 22.3356038,
    "longitude": 103.8401254
  },
  {
    "url": "40d52abf-be3d-4451-9a68-2d137d6819b0.jpg",
    "title": "Cáp treo Fansipan Legend",
    "desc": "Tuyến cáp treo nối Sapa và đỉnh Fansipan, có đền chùa, nhà hàng và cửa hàng ở cả ga đến và ga đi.",
    "code": 39,
    "latitude": 22.3349479,
    "longitude": 103.8407769
  },
  {
    "url": "8e241354-9536-4fa4-80fc-55f4826757ee.jpg",
    "title": "Khu du lịch Thác Bạc",
    "desc": "Thác nước lớn nên thơ, có thể thấy từ đường lớn, là điểm đến ưa thích của người đi xe đạp và đi bộ đường dài.",
    "code": 39,
    "latitude": 22.3617254,
    "longitude": 103.7779017
  },
  {
    "url": "2c25a06e-7817-4ab0-84b1-341bcd6d0a4f.jpg",
    "title": "Đèo Ô Quy Hồ",
    "desc": "Đèo Ô Quý Hồ, đèo Ô Quy Hồ hay đèo Hoàng Liên Sơn là đèo trên quốc lộ 4D ở vùng giáp ranh hai tỉnh Lào Cai và Lai Châu, Việt Nam.",
    "code": 39,
    "latitude": 22.3633718,
    "longitude": 103.7632513
  },
  {
    "url": "96b69da9-94ab-42a2-be2c-1580a46b20c6.jpg",
    "title": "Đỉnh Phan Xi Păng",
    "desc": "Núi",
    "code": 39,
    "latitude": 22.3046344,
    "longitude": 103.7772983
  }
]