[
  {
    "url": "89eaace4-7e9b-4a0e-8733-d55dcda04f06.jpg",
    "title": "Bãi tắm Cát Cò 1",
    "desc": "Bãi biển",
    "code": 42,
    "latitude": 20.717780,
    "longitude": 107.052744
  },
  {
    "url": "a5f0ccf0-5036-4ef5-b25e-995fa2e286b2.jpg",
    "title": "Đầu Gỗ",
    "desc": "Hang",
    "code": 42,
    "latitude": 20.911159,
    "longitude": 107.018658
  },
  {
    "url": "11e1a30b-80cb-40eb-a878-0cf9bc0c2903.jpg",
    "title": "đảo Cát Dứa",
    "desc": "Chèo thuyền kayak và bãi biển",
    "code": 42,
    "latitude": 20.7279523,
    "longitude": 107.0794128
  },
  {
    "url": "bc15445d-61bb-49e6-9010-06c28a294365.jpg",
    "title": "Hang Quân Y",
    "desc": "Hang",
    "code": 42,
    "latitude": 20.769890,
    "longitude": 107.020773
  },
  {
    "url": "967a8628-721b-44f2-80d7-d5b061230395.jpg",
    "title": "Vịnh Lan Hạ",
    "desc": "Chèo thuyền kayak",
    "code": 42,
    "latitude": 20.7237207,
    "longitude": 107.0465615
  },
  {
    "url": "be9d8f35-d8d3-476d-b203-5ec2ad8acdb7.jpg",
    "title": "Bến Bèo",
    "desc": "Cảng",
    "code": 42,
    "latitude": 20.731915,
    "longitude": 107.059277
  },
  {
    "url": "745550a2-239d-405d-b722-69917a73dbaf.jpg",
    "title": "Ba Trai Dao",
    "desc": "Bãi biển",
    "code": 42,
    "latitude": 20.7903319,
    "longitude": 107.102116
  },
  {
    "url": "f4f726ff-ee85-43a5-b18d-2aeae5371659.jpg",
    "title": "Du thuyền Paradise Hạ Long",
    "desc": "Du ngoạn ban ngày & qua đêm nơi cảnh đẹp hùng vĩ",
    "code": 42,
    "latitude": 20.9171154,
    "longitude": 106.986488
  }
]