[
  {
    "url": "a3401e29-1443-4a0a-903b-eaa8fbfa97f6.jpg",
    "title": "Red Sand Dunes - ĐỒI CÁT ĐỎ",
    "desc": "Điểm thu hút khách du lịch",
    "code": 31,
    "latitude": 10.9492961,
    "longitude": 108.2963502
  },
  {
    "url": "fe15da7e-2732-4ef3-9c0a-a263617a5d69.jpg",
    "title": "Muine Fishing Village",
    "desc": "Làng chài nổi tiếng với truyền thống đánh bắt cá",
    "code": 31,
    "latitude": 10.9410098,
    "longitude": 108.2791267
  },
  {
    "url": "7afd5e2e-faca-4cbc-845a-c24fbea9ce5e.jpg",
    "title": "Bãi Biển Mũi Né",
    "desc": "Điểm thu hút khách du lịch",
    "code": 31,
    "latitude": 10.9537923,
    "longitude": 108.3064832
  },
  {
    "url": "0d999166-ccd9-4025-ad51-d8706763f5f4.jpg",
    "title": "Fishing Harbour - Mui Ne",
    "desc": "Điểm thu hút khách du lịch",
    "code": 31,
    "latitude": 10.9434819,
    "longitude": 108.2765441
  },
  {
    "url": "c50f4c28-551d-49a8-adf6-bbac5c902c51.jpg",
    "title": "Rừng hoa keo lá tràm Phan Thiết",
    "desc": "Điểm thu hút khách du lịch",
    "code": 31,
    "latitude": 10.9509419,
    "longitude": 108.2838573
  },
  {
    "url": "a7797108-0358-44a4-ab16-d5efccae8211.jpg",
    "title": "Suối Hồng",
    "desc": "Khu đất khép kín",
    "code": 31,
    "latitude": 10.946567,
    "longitude": 108.3004061
  },
  {
    "url": "73a3f610-dbd3-4336-9f35-bb7174bf4398.jpg",
    "title": "Hom Rom Beach",
    "desc": "Bãi biển",
    "code": 31,
    "latitude": 10.9592959,
    "longitude": 108.3246676
  },
  {
    "url": "4f5054c0-a576-4dd2-b79b-2e65adb36a8b.jpg",
    "title": "Chùa Linh Long",
    "desc": "Đền",
    "code": 31,
    "latitude": 10.9276081,
    "longitude": 108.2860619
  },
  {
    "url": "198d1bef-53ff-4d21-9e6a-e60fdef0cf8d.jpg",
    "title": "Hon Rom",
    "desc": "Đỉnh núi",
    "code": 31,
    "latitude": 10.950121,
    "longitude": 108.333516
  },
  {
    "url": "7de16e6a-7c91-4617-a408-279cc0ddbb1f.jpg",
    "title": "Nhà thờ Mũi Né",
    "desc": "Nhà thờ Công giáo",
    "code": 31,
    "latitude": 10.9277013,
    "longitude": 108.2838146
  },
  {
    "url": "6edf9873-6de8-4662-9444-243988a39a77.jpg",
    "title": "Mũi Né",
    "desc": "Điểm thu hút khách du lịch",
    "code": 31,
    "latitude": 10.9332105,
    "longitude": 108.2871837
  },
  {
    "url": "e4a7d65c-8e74-4b9b-ace5-d32c054f972f.jpg",
    "title": "Rock Bay Mũi Né Homestay",
    "desc": "Bãi biển công cộng",
    "code": 31,
    "latitude": 10.9389695,
    "longitude": 108.281252
  },
  {
    "url": "4fc7c673-3691-4510-8057-87c0c53812ad.jpg",
    "title": "무이네 모래사막",
    "desc": "Hoang mạc",
    "code": 31,
    "latitude": 10.9554674,
    "longitude": 108.2915613
  },
  {
    "url": "4e15f795-a045-4a66-8b5f-50764c02ffce.jpg",
    "title": "Bãi đá Ông Địa",
    "desc": "Bãi biển và h.động lướt ván, cafe & bar",
    "code": 31,
    "latitude": 10.9367259,
    "longitude": 108.1843512
  },
  {
    "url": "9fe15287-2c75-447a-964b-422f52d230ed.jpg",
    "title": "Bãi biển Đồi Dương",
    "desc": "Bãi biển và hải sản",
    "code": 31,
    "latitude": 10.9235501,
    "longitude": 108.1137236
  },
  {
    "url": "be9870e9-d056-4fae-b095-7c4c2e8a66f8.jpg",
    "title": "Tháp Po Sah Inu",
    "desc": "Kiến trúc",
    "code": 31,
    "latitude": 10.9360078,
    "longitude": 108.1459929
  },
  {
    "url": "4e7e83f7-4652-41dd-8ae2-6cc31d1f7a9b.jpg",
    "title": "Bãi biển Phan Thiết",
    "desc": "Bãi biển",
    "code": 31,
    "latitude": 10.9322332,
    "longitude": 108.1317031
  },
  {
    "url": "faa2539c-b7a2-4b75-b10b-d7fa2cc998f9.jpg",
    "title": "Sea Links Golf Country Club",
    "desc": "Golf và câu lạc bộ đồng quê",
    "code": 31,
    "latitude": 10.942469,
    "longitude": 108.182231
  },
  {
    "url": "4bd5d53f-3ec8-444e-a71c-7c0adf235d71.jpg",
    "title": "Bãi Rạng",
    "desc": "Điểm quan tâm",
    "code": 31,
    "latitude": 10.9526438,
    "longitude": 108.2502841
  },
  {
    "url": "59bfd9ad-d00d-4da0-b3e6-ac82fa3df95a.jpg",
    "title": "Fishermen Show Theatre - Huyền Thoại Làng Chài",
    "desc": "Điểm thu hút khách du lịch",
    "code": 31,
    "latitude": 10.9387832,
    "longitude": 108.1644267
  },
  {
    "url": "8e403891-7ec8-4f68-b527-f2c9c964d06d.jpg",
    "title": "Chợ Phú Thủy",
    "desc": "Chợ",
    "code": 31,
    "latitude": 10.934292,
    "longitude": 108.112226
  },
  {
    "url": "3346fff7-94f8-44ce-b1bd-815c3774d477.jpg",
    "title": "Tháp Chăm Po Sah Inư",
    "desc": "Tháp cổ Shiva cao hơn 16 mét",
    "code": 31,
    "latitude": 10.9360078,
    "longitude": 108.1459929
  },
  {
    "url": "acf459dc-19c6-480c-98c2-5e5aee3552e0.jpg",
    "title": "Công Viên Tượng Cát Phan Thiết",
    "desc": "Vườn",
    "code": 31,
    "latitude": 10.9388825,
    "longitude": 108.1716776
  },
  {
    "url": "dcdc2181-22cf-45e0-a92e-6437bf3184d6.jpg",
    "title": "Vita Garden Mini-Zoo",
    "desc": "Vườn bách thú",
    "code": 31,
    "latitude": 10.9545062,
    "longitude": 108.2583922
  },
  {
    "url": "a77c0075-20e4-44d5-b360-bc3cd6ce3d17.jpg",
    "title": "Chợ Hàm Tiến",
    "desc": "Chợ",
    "code": 31,
    "latitude": 10.9542465,
    "longitude": 108.2451172
  },
  {
    "url": "acb56c6d-2e6d-40fc-a512-198ff956d1d3.jpg",
    "title": "Bảo tàng nước mắm Làng Chài Xưa - Fish Sauce Museum",
    "desc": "Điểm thu hút khách du lịch",
    "code": 31,
    "latitude": 10.9394519,
    "longitude": 108.164735
  },
  {
    "url": "67d1796f-a4bb-4a51-889f-1915d1c50545.jpg",
    "title": "Nhóm Đền Tháp Chăm Poshanu",
    "desc": "Lịch sử",
    "code": 31,
    "latitude": 10.9362231,
    "longitude": 108.1465545
  },
  {
    "url": "9b1dfa31-3a86-46a7-85ac-ae73eeec2adc.jpg",
    "title": "TROPICAL Mini Golf",
    "desc": "Golf",
    "code": 31,
    "latitude": 10.9485301,
    "longitude": 108.2038492
  },
  {
    "url": "8f4e93ce-44dc-4eb7-82d0-0ebba85f8c37.jpg",
    "title": "Nhà Thờ RẠNG",
    "desc": "Nhà thờ Công giáo",
    "code": 31,
    "latitude": 10.9526903,
    "longitude": 108.2480496
  },
  {
    "url": "2a057b94-560e-402b-8751-8b96c25b61df.jpg",
    "title": "Công viên Đồi Dương",
    "desc": "Công viên",
    "code": 31,
    "latitude": 10.9255169,
    "longitude": 108.1156513
  },
  {
    "url": "b370c29f-65e5-420d-8199-34e17d13c177.jpg",
    "title": "Mui Ne Cooking School",
    "desc": "Điểm thu hút khách du lịch",
    "code": 31,
    "latitude": 10.9480176,
    "longitude": 108.2028222
  },
  {
    "url": "f43e6381-8272-435e-87b4-ab0987d99de4.jpg",
    "title": "Resort Bien Da Vang",
    "desc": "Điểm quan tâm",
    "code": 31,
    "latitude": 10.927534,
    "longitude": 108.1100446
  },
  {
    "url": "5a12ba11-da72-4655-a8e9-30ecf7f3e288.jpg",
    "title": "Poshainu Cham Towers, Mui Ne",
    "desc": "Đền thờ Hindu",
    "code": 31,
    "latitude": 10.9359532,
    "longitude": 108.1460818
  },
  {
    "url": "0c5642e5-c446-4a23-bbe4-676bee6deffd.jpg",
    "title": "Red Sand Dunes Beach",
    "desc": "Bãi biển",
    "code": 31,
    "latitude": 10.9492961,
    "longitude": 108.2963502
  },
  {
    "url": "013f3606-05d4-47de-a2f2-ad81880f67fd.jpg",
    "title": "Du lịch cắm trại Gió biển hòn Nghề",
    "desc": "Cắm trại",
    "code": 31,
    "latitude": 11.0120308,
    "longitude": 108.3529141
  },
  {
    "url": "4ff1e3c8-6716-4090-9455-92829e0ee37b.jpg",
    "title": "Biển Phú Hài",
    "desc": "Bãi biển",
    "code": 31,
    "latitude": 10.931605,
    "longitude": 108.150470
  },
  {
    "url": "a5236a51-ec0e-4889-93f6-a5e472981d21.jpg",
    "title": "Chùa Phật Quang",
    "desc": "Phật giáo và Đền",
    "code": 31,
    "latitude": 10.9264388,
    "longitude": 108.1081295
  },
  {
    "url": "78cc03cf-85f8-4e89-b1c2-1a469780e7ed.jpg",
    "title": "Công viên Võ Văn Kiệt",
    "desc": "Công viên",
    "code": 31,
    "latitude": 10.9399426,
    "longitude": 108.1060267
  },
  {
    "url": "6e8722c3-b66c-41af-920c-d33edd687b51.jpg",
    "title": "Tượng đài Chiến Thắng",
    "desc": "Âm nhạc và lịch sử",
    "code": 31,
    "latitude": 10.92952,
    "longitude": 108.104525
  },
  {
    "url": "f39943c7-16e7-48fb-bb5b-960347635e77.jpg",
    "title": "Chùa Tòng Lâm Vạn Thiện",
    "desc": "Chùa phật giáo",
    "code": 31,
    "latitude": 10.9381124,
    "longitude": 108.1097828
  },
  {
    "url": "ac184a28-8565-47cb-99fb-382821c91c74.jpg",
    "title": "Núi Tà Zôn",
    "desc": "Núi",
    "code": 31,
    "latitude": 11.0482802,
    "longitude": 108.1803131
  },
  {
    "url": "b31c9ac9-3cc9-4123-bada-82a66ebaef83.jpg",
    "title": "Bãi biển Tu Lam",
    "desc": "Bãi biển",
    "code": 31,
    "latitude": 10.9362672,
    "longitude": 108.1841903
  },
  {
    "url": "59f7c929-bf9c-498c-bc92-ad3f0bac3527.jpg",
    "title": "suối Tiên",
    "desc": "nước",
    "code": 31,
    "latitude": 10.959532,
    "longitude": 108.263384
  }
]