[
  {
    "url": "c77db0f8-e731-4e67-8337-988cc44371cb.jpg",
    "title": "Red Sand Dunes - ĐỒI CÁT ĐỎ",
    "desc": "Điểm thu hút khách du lịch",
    "code": 35,
    "latitude": 10.9492961,
    "longitude": 108.2963502
  },
  {
    "url": "5d4b398a-cadc-4ed8-a4e3-eec113866019.jpg",
    "title": "Muine Fishing Village",
    "desc": "Làng chài nổi tiếng với truyền thống đánh bắt cá",
    "code": 35,
    "latitude": 10.9410098,
    "longitude": 108.2791267
  },
  {
    "url": "1f73b10f-150a-4937-a863-67943f27b72e.jpg",
    "title": "Bãi đá Ông Địa",
    "desc": "Bãi biển và h.động lướt ván, cafe & bar",
    "code": 35,
    "latitude": 10.9367259,
    "longitude": 108.1843512
  },
  {
    "url": "b1d088a4-0a76-4d64-b6b0-4cd56f8e289e.jpg",
    "title": "Bãi biển Đồi Dương",
    "desc": "Bãi biển và hải sản",
    "code": 35,
    "latitude": 10.9235501,
    "longitude": 108.1137236
  },
  {
    "url": "aea3bb53-ba08-4148-8ee9-5c7cf0b891e9.jpg",
    "title": "Tháp Po Sah Inu",
    "desc": "Kiến trúc",
    "code": 35,
    "latitude": 10.9360078,
    "longitude": 108.1459929
  },
  {
    "url": "feac417e-c3a7-4b31-8ee0-cb53dd5b8768.jpg",
    "title": "Trường Dục Thanh",
    "desc": "Kiến trúc và lịch sử",
    "code": 35,
    "latitude": 10.9285006,
    "longitude": 108.0958865
  },
  {
    "url": "3848b8a1-cccb-4bed-b90e-9a0c121272e8.jpg",
    "title": "Bãi biển Phan Thiết",
    "desc": "Bãi biển",
    "code": 35,
    "latitude": 10.9322332,
    "longitude": 108.1317031
  },
  {
    "url": "17daa4e6-0ce2-4339-a0ab-34fa470dca46.jpg",
    "title": "Phú Quý",
    "desc": "Du lịch bụi và hải sản",
    "code": 35,
    "latitude": 10.533333,
    "longitude": 108.95
  },
  {
    "url": "706b0e9c-e323-4184-9980-988d889aec37.jpg",
    "title": "Đình Vạn Thủy Tú",
    "desc": "Bảo tàng",
    "code": 35,
    "latitude": 10.9228812,
    "longitude": 108.1002056
  },
  {
    "url": "54c01408-abba-426c-bdf4-17f14293db8f.jpg",
    "title": "Sea Links Golf Country Club",
    "desc": "Golf và câu lạc bộ đồng quê",
    "code": 35,
    "latitude": 10.941731,
    "longitude": 108.179653
  },
  {
    "url": "b34e8196-35fa-47b9-9e06-215802dbb83e.jpg",
    "title": "Bãi Rạng",
    "desc": "Điểm quan tâm",
    "code": 35,
    "latitude": 10.9526438,
    "longitude": 108.2502841
  },
  {
    "url": "6e69aee7-604b-454f-a096-db887b07b14d.jpg",
    "title": "Bãi Biển Mũi Né",
    "desc": "Điểm thu hút khách du lịch",
    "code": 35,
    "latitude": 10.9537923,
    "longitude": 108.3064832
  },
  {
    "url": "dfa3c064-0000-4c89-a2b6-4cfbe002bfd4.jpg",
    "title": "Fishermen Show Theatre - Huyền Thoại Làng Chài",
    "desc": "Điểm thu hút khách du lịch",
    "code": 35,
    "latitude": 10.9387832,
    "longitude": 108.1644267
  },
  {
    "url": "1e48be2b-9c3e-447b-86f5-4f380b0a255d.jpg",
    "title": "Tòa Giám Mục Phan Thiết",
    "desc": "Nhà thờ Công giáo",
    "code": 35,
    "latitude": 10.9226649,
    "longitude": 108.0940787
  },
  {
    "url": "e112c7eb-8f3a-46d8-8c88-10bddc1f254b.jpg",
    "title": "Fishing Harbour - Mui Ne",
    "desc": "Điểm thu hút khách du lịch",
    "code": 35,
    "latitude": 10.9434819,
    "longitude": 108.2765441
  },
  {
    "url": "c46d7df7-13c4-40a6-a7f0-c8abfc19c89e.jpg",
    "title": "Chợ Phú Thủy",
    "desc": "Chợ",
    "code": 35,
    "latitude": 10.934289,
    "longitude": 108.112226
  },
  {
    "url": "bceaa8c6-3997-4eba-856b-f39373e64bc3.jpg",
    "title": "Tháp Chăm Po Sah Inư",
    "desc": "Tháp cổ Shiva cao hơn 16 mét",
    "code": 35,
    "latitude": 10.9360078,
    "longitude": 108.1459929
  },
  {
    "url": "1d2a3a7c-9da7-4325-93e8-54b254e10ad1.jpg",
    "title": "Rừng hoa keo lá tràm Phan Thiết",
    "desc": "Điểm thu hút khách du lịch",
    "code": 35,
    "latitude": 10.9509419,
    "longitude": 108.2838573
  },
  {
    "url": "dde6986d-bc1f-44d6-b2e0-d7b76afb9aca.jpg",
    "title": "Công Viên Tượng Cát Phan Thiết",
    "desc": "Vườn",
    "code": 35,
    "latitude": 10.9388825,
    "longitude": 108.1716776
  },
  {
    "url": "9cfc0bc1-fcd1-4a6b-956b-702499df1973.jpg",
    "title": "Vita Garden Mini-Zoo",
    "desc": "Vườn bách thú",
    "code": 35,
    "latitude": 10.9545062,
    "longitude": 108.2583922
  },
  {
    "url": "0dcc71c4-ef88-4c8a-9788-df1d84ab27f7.jpg",
    "title": "Chợ Hàm Tiến",
    "desc": "Chợ",
    "code": 35,
    "latitude": 10.9542465,
    "longitude": 108.2451172
  },
  {
    "url": "b3bc9c55-a162-459f-be3f-763f2ecc7e88.jpg",
    "title": "Suối Hồng",
    "desc": "Khu đất khép kín",
    "code": 35,
    "latitude": 10.946567,
    "longitude": 108.3004061
  },
  {
    "url": "9096fdc5-8bff-490d-a514-6b49a9f4b0b9.jpg",
    "title": "Bảo tàng nước mắm Làng Chài Xưa - Fish Sauce Museum",
    "desc": "Điểm thu hút khách du lịch",
    "code": 35,
    "latitude": 10.9394519,
    "longitude": 108.164735
  },
  {
    "url": "11fab021-d426-48e4-b740-aa1b0714622a.jpg",
    "title": "Nhóm Đền Tháp Chăm Poshanu",
    "desc": "Lịch sử",
    "code": 35,
    "latitude": 10.9362231,
    "longitude": 108.1465545
  },
  {
    "url": "d289af2e-90db-4bbe-9160-916bef07b33e.jpg",
    "title": "TROPICAL Mini Golf",
    "desc": "Golf",
    "code": 35,
    "latitude": 10.9485301,
    "longitude": 108.2038492
  },
  {
    "url": "c9009729-77a1-48e8-92ac-e526e72181cf.jpg",
    "title": "Tháp nước Phan Thiết",
    "desc": "Mốc lịch sử",
    "code": 35,
    "latitude": 10.928742,
    "longitude": 108.099974
  },
  {
    "url": "f472066b-7112-4184-a47f-2931a3f1138e.jpg",
    "title": "Nhà Thờ RẠNG",
    "desc": "Nhà thờ Công giáo",
    "code": 35,
    "latitude": 10.9526903,
    "longitude": 108.2480496
  },
  {
    "url": "a2038c5a-1f48-4f87-b0a3-8a74695ed520.jpg",
    "title": "Công viên Đồi Dương",
    "desc": "Công viên",
    "code": 35,
    "latitude": 10.9255169,
    "longitude": 108.1156513
  },
  {
    "url": "ff989ade-699b-4841-ac80-be74fa3f5478.jpg",
    "title": "Quan Đế Miếu",
    "desc": "Đền",
    "code": 35,
    "latitude": 10.9271914,
    "longitude": 108.0962732
  },
  {
    "url": "8e4c1c70-4478-4d0c-a944-fef4bbfa175a.jpg",
    "title": "Hom Rom Beach",
    "desc": "Bãi biển",
    "code": 35,
    "latitude": 10.9592959,
    "longitude": 108.3246676
  },
  {
    "url": "91d4d6d6-bd5f-405f-9972-72c65d46778d.jpg",
    "title": "Bảo Tàng Hồ Chí Minh",
    "desc": "Viện bảo tàng",
    "code": 35,
    "latitude": 10.9286691,
    "longitude": 108.0953545
  },
  {
    "url": "285e3f8c-2583-4219-9d7f-a89250324008.jpg",
    "title": "Resort Bien Da Vang",
    "desc": "Điểm quan tâm",
    "code": 35,
    "latitude": 10.927534,
    "longitude": 108.1100446
  },
  {
    "url": "6fe52d5c-9670-484b-a610-2697aa2e6390.jpg",
    "title": "Chùa Linh Long",
    "desc": "Đền",
    "code": 35,
    "latitude": 10.9276081,
    "longitude": 108.2860619
  },
  {
    "url": "afb16eda-dbef-40d9-aa31-2092eb2cfe22.jpg",
    "title": "Hon Rom",
    "desc": "Đỉnh núi",
    "code": 35,
    "latitude": 10.950004,
    "longitude": 108.333332
  },
  {
    "url": "b5989311-0ffb-4e0b-b2d8-78592c53800c.jpg",
    "title": "Nhà thờ Mũi Né",
    "desc": "Nhà thờ Công giáo",
    "code": 35,
    "latitude": 10.9277013,
    "longitude": 108.2838146
  },
  {
    "url": "c7b87760-b196-4b7e-b61e-f4d741c1c7ca.jpg",
    "title": "Poshainu Cham Towers, Mui Ne",
    "desc": "Đền thờ Hindu",
    "code": 35,
    "latitude": 10.9359532,
    "longitude": 108.1460818
  },
  {
    "url": "329ac816-b071-4d7c-afc1-10015bcd4a33.jpg",
    "title": "Cảng Phan Thiết",
    "desc": "Cảng",
    "code": 35,
    "latitude": 10.920292,
    "longitude": 108.103146
  },
  {
    "url": "c3214c9b-5c0a-4ef2-9bd7-e1cdaf372f04.jpg",
    "title": "Suối nước nóng Bưng Thị",
    "desc": "Điểm thu hút khách du lịch",
    "code": 35,
    "latitude": 10.7730494,
    "longitude": 107.931609
  }
]