[
  {
    "url": "22c2b7a6-9d69-4e37-aff5-0635988acf8e.jpg",
    "title": "Thung Lũng Mường Hoa",
    "desc": "Lặn lội giữa đồng lúa & làng mạc",
    "code": 39,
    "latitude": 22.3282938,
    "longitude": 103.8476331
  },
  {
    "url": "a6e6074f-b3f0-40bc-8a4e-ccf4fc9ba149.jpg",
    "title": "Cáp treo Fansipan Legend",
    "desc": "Tuyến cáp treo lên đỉnh Fansipan",
    "code": 39,
    "latitude": 22.3349479,
    "longitude": 103.8407769
  },
  {
    "url": "4d267419-8653-4cef-ad61-959f435cd9e0.jpg",
    "title": "Ham Rong Mountain, Sapa",
    "desc": "Núi",
    "code": 39,
    "latitude": 22.334551,
    "longitude": 103.847751
  },
  {
    "url": "ecb0118d-84b5-4f2d-b6ea-3cbc598771d9.jpg",
    "title": "Chợ đêm Sapa",
    "desc": "Thị trường và mua sắm cá nhân",
    "code": 39,
    "latitude": 22.338222,
    "longitude": 103.851689
  },
  {
    "url": "0b27cd10-161c-4f15-b0c9-60a6a88e59b0.jpg",
    "title": "Chợ Tình Sapa",
    "desc": "Mua sắm cá nhân",
    "code": 39,
    "latitude": 22.3363608,
    "longitude": 103.8437852
  },
  {
    "url": "b82f261f-80f7-40fd-9d5f-c268ddfa1c19.jpg",
    "title": "Hồ Sa Pa",
    "desc": "Hồ",
    "code": 39,
    "latitude": 22.3380984,
    "longitude": 103.8459004
  },
  {
    "url": "cd3b859c-6a35-46bf-8864-61dc7c4d3115.jpg",
    "title": "Núi Hàm Rồng-Sapa",
    "desc": "Khu bảo tồn thiên nhiên",
    "code": 39,
    "latitude": 22.3314659,
    "longitude": 103.8593075
  },
  {
    "url": "a9eeefc6-b5d1-46e6-8a3a-ca9536dbfcee.jpg",
    "title": "Nhà Thờ Đá Sapa",
    "desc": "Nhà thờ Công giáo có tháp chuông bằng đá",
    "code": 39,
    "latitude": 22.3351709,
    "longitude": 103.8422108
  },
  {
    "url": "19045c3b-54e7-404d-b295-966c0dbd0358.jpg",
    "title": "cổng trời",
    "desc": "Mốc lịch sử",
    "code": 39,
    "latitude": 22.3344629,
    "longitude": 103.8479561
  },
  {
    "url": "bc81774b-e916-4d05-b9a4-a8284dfc88c8.jpg",
    "title": "Sapa Museum",
    "desc": "Bảo tàng văn hóa có bán đồ thủ công",
    "code": 39,
    "latitude": 22.3356038,
    "longitude": 103.8401254
  },
  {
    "url": "12cd2f8a-9195-4fc7-a4a5-dd7b70cde2e4.jpg",
    "title": "Stone Church",
    "desc": "Điểm quan tâm",
    "code": 39,
    "latitude": 22.3351944,
    "longitude": 103.8402113
  },
  {
    "url": "10b6bdf2-cfae-4382-855f-7400df893b62.jpg",
    "title": "Vườn hoa Hàm Rồng",
    "desc": "Hoa lá, cây cảnh và toàn cảnh Sa Pa",
    "code": 39,
    "latitude": 22.3363608,
    "longitude": 103.8437852
  },
  {
    "url": "caf30071-ef7c-4f35-807e-0f300a6ae5d1.jpg",
    "title": "Đồi chè Ô Long Sa Pa",
    "desc": "Điểm thu hút khách du lịch",
    "code": 39,
    "latitude": 22.364287,
    "longitude": 103.800884
  },
  {
    "url": "c1b0519c-2e44-4d7f-aab5-38a667f03113.jpg",
    "title": "Indigo Cat",
    "desc": "Thủ công mỹ nghệ",
    "code": 39,
    "latitude": 22.3331637,
    "longitude": 103.8404184
  },
  {
    "url": "fee0b003-e1ba-4af5-91ee-2b04ec3819da.jpg",
    "title": "SaPa Nơi Gặp Gỡ Đất Trời",
    "desc": "Trung tâm cộng đồng",
    "code": 39,
    "latitude": 22.3353289,
    "longitude": 103.8416821
  },
  {
    "url": "d2704291-4988-4868-a5ef-1caeef3778a7.jpg",
    "title": "Swing SaPa",
    "desc": "Điểm thu hút khách du lịch",
    "code": 39,
    "latitude": 22.337574,
    "longitude": 103.832945
  },
  {
    "url": "a2eada1c-9d53-425b-ab40-a70bb7d7e216.jpg",
    "title": "Quang Truong Square",
    "desc": "Điểm quan tâm",
    "code": 39,
    "latitude": 22.335199,
    "longitude": 103.840210
  },
  {
    "url": "7be92a19-36a2-4cc4-b7fa-d33b5a4941b6.jpg",
    "title": "Đền Mẫu Sơn",
    "desc": "Nơi thờ cúng",
    "code": 39,
    "latitude": 22.3367174,
    "longitude": 103.8500667
  },
  {
    "url": "305739d8-9428-4387-83d7-3d7f410514a8.jpg",
    "title": "Sapa Tourist Information Center",
    "desc": "Trung tâm thông tin cho khách",
    "code": 39,
    "latitude": 22.3352066,
    "longitude": 103.840907
  },
  {
    "url": "1debc3ce-4164-4eca-904d-c8783b0c4262.jpg",
    "title": "Sapa Silver",
    "desc": "Điểm quan tâm",
    "code": 39,
    "latitude": 22.332844,
    "longitude": 103.843690
  },
  {
    "url": "5c876389-f1df-4ba8-9f5b-b9da17917f0c.jpg",
    "title": "Nomadtrails Boutique Hotel",
    "desc": "Điểm quan tâm",
    "code": 39,
    "latitude": 22.333928,
    "longitude": 103.841168
  },
  {
    "url": "bed74c80-344e-419e-89ae-6b18d08d24f0.jpg",
    "title": "Công Viên Sapa",
    "desc": "Công viên",
    "code": 39,
    "latitude": 22.335934,
    "longitude": 103.842332
  },
  {
    "url": "3761f048-65f8-4375-b5ab-9c4c0cab5e46.jpg",
    "title": "Vườn Hoa Cải",
    "desc": "Bảo tàng",
    "code": 39,
    "latitude": 22.3272486,
    "longitude": 103.8353893
  },
  {
    "url": "e5367a1a-67f6-4ab8-8fe6-8d683bf2881f.jpg",
    "title": "Dự Án SapaJadeHill",
    "desc": "Núi",
    "code": 39,
    "latitude": 22.332649,
    "longitude": 103.846734
  },
  {
    "url": "f71e2b82-c47c-4f0e-b2c3-42f3647e8ed3.jpg",
    "title": "Thiền viện Trúc Lâm Đại Giác",
    "desc": "Chùa phật giáo",
    "code": 39,
    "latitude": 22.3406351,
    "longitude": 103.8491108
  },
  {
    "url": "c167cd62-b24e-4642-a435-52e084558641.jpg",
    "title": "Đền Hàng Phố",
    "desc": "Nơi thờ cúng",
    "code": 39,
    "latitude": 22.3332103,
    "longitude": 103.8404517
  },
  {
    "url": "c6aba51d-9c70-4402-98e4-8f02de3f73fe.jpg",
    "title": "Đền Mẫu Thượng Sa Pa",
    "desc": "Đền",
    "code": 39,
    "latitude": 22.340676,
    "longitude": 103.832672
  },
  {
    "url": "8e1a7afa-68a2-4b7b-8dd0-f7194e04992d.jpg",
    "title": "Phan Xi Păng",
    "desc": "Núi có đường mòn và cáp treo",
    "code": 39,
    "latitude": 22.3046344,
    "longitude": 103.7772983
  },
  {
    "url": "8e1b4a0d-0d7c-4fc5-b0ba-f6874318d89c.jpg",
    "title": "Khu du lịch Thác Bạc",
    "desc": "Thác nước và điểm đi bộ đường dài",
    "code": 39,
    "latitude": 22.3617254,
    "longitude": 103.7779017
  },
  {
    "url": "bd1e0eff-8418-434a-9410-07f832a17b42.jpg",
    "title": "Đèo Ô Quy Hồ",
    "desc": "Núi và du lịch bụi",
    "code": 39,
    "latitude": 22.3633718,
    "longitude": 103.7632513
  },
  {
    "url": "0d767e0e-f30d-4c06-b2a9-429e22cdb7f9.jpg",
    "title": "Dãy núi Hoàng Liên Sơn",
    "desc": "Núi và rừng",
    "code": 39,
    "latitude": 22.3333333,
    "longitude": 103.75
  },
  {
    "url": "6001054a-e25c-4cad-9da6-3f6df6a7966a.jpg",
    "title": "Thác Tình Yêu",
    "desc": "Thác và rừng",
    "code": 39,
    "latitude": 22.3211414,
    "longitude": 103.810034
  },
  {
    "url": "8039fd13-e0f6-4dc4-8f31-ba2fa2f6da04.jpg",
    "title": "Bản Ý Linh Hồ",
    "desc": "Điểm thu hút khách du lịch",
    "code": 39,
    "latitude": 22.3137965,
    "longitude": 103.8608348
  },
  {
    "url": "f31dda7d-3b39-46fb-a75b-a59eb7603c79.jpg",
    "title": "Bãi Đá Cổ Sa Pa",
    "desc": "Điểm thu hút khách du lịch",
    "code": 39,
    "latitude": 22.3041235,
    "longitude": 103.89864
  },
  {
    "url": "cd947ead-e76d-4c21-957a-3144c043560c.jpg",
    "title": "Lao Chai Village",
    "desc": "Đình làng",
    "code": 39,
    "latitude": 22.3064406,
    "longitude": 103.8784545
  },
  {
    "url": "f92f9ef0-e3b4-4f72-b951-0b61cb1891d6.jpg",
    "title": "CẦU KÍNH RỒNG MÂY",
    "desc": "Điểm thu hút khách du lịch",
    "code": 39,
    "latitude": 22.372298,
    "longitude": 103.761872
  },
  {
    "url": "b0632cfc-430a-499b-b01e-4568d9c302a6.jpg",
    "title": "Đỉnh Phan Xi Păng",
    "desc": "Núi",
    "code": 39,
    "latitude": 22.3046344,
    "longitude": 103.7772983
  },
  {
    "url": "e9951209-1112-4b7e-85e1-57fd1e1ca4b5.jpg",
    "title": "Khu Du Lịch Cát Cát - Sapa",
    "desc": "Điểm thu hút khách du lịch",
    "code": 39,
    "latitude": 22.3310439,
    "longitude": 103.8344932
  },
  {
    "url": "dbaae687-2240-4c6e-a242-71aa816ef7e6.jpg",
    "title": "Hang Tả Phìn",
    "desc": "Điểm thu hút khách du lịch",
    "code": 39,
    "latitude": 22.402824,
    "longitude": 103.836786
  },
  {
    "url": "db6dc373-eb41-4702-8940-37103c8341d0.jpg",
    "title": "Nóc nhà Đông Dương",
    "desc": "Mốc lịch sử",
    "code": 39,
    "latitude": 22.3032618,
    "longitude": 103.7751771
  },
  {
    "url": "8a937c9a-f3e6-49f1-ad63-a62a942cf43a.jpg",
    "title": "Tu Viện Cổ Tả Phìn",
    "desc": "Địa điểm lịch sử",
    "code": 39,
    "latitude": 22.3773113,
    "longitude": 103.8515496
  },
  {
    "url": "525e62ca-b40f-4ae3-b0f1-1426f91d97ad.jpg",
    "title": "Thác Tiên Sa",
    "desc": "Tự nhiên",
    "code": 39,
    "latitude": 22.327524,
    "longitude": 103.8340857
  },
  {
    "url": "87b6ca7b-f46f-41de-9237-cdbf2da386c9.jpg",
    "title": "Dinh FANSIPAN",
    "desc": "Nơi thờ cúng",
    "code": 39,
    "latitude": 22.303241,
    "longitude": 103.7752498
  },
  {
    "url": "f3ed9bd8-7336-47ee-a780-d1f3e6e01ad9.jpg",
    "title": "Động Tiên Sơn, Lai Châu",
    "desc": "Điểm thu hút khách du lịch",
    "code": 39,
    "latitude": 22.3183714,
    "longitude": 103.6561824
  },
  {
    "url": "6803eec7-d003-434f-abfa-40332adbd8df.jpg",
    "title": "Cau May Waterfall",
    "desc": "Điểm quan tâm",
    "code": 39,
    "latitude": 22.2925393,
    "longitude": 103.9054091
  },
  {
    "url": "8b3f5b5a-871c-4dd8-ad13-89aeb717a9c1.jpg",
    "title": "Đỉnh đèo Ô Quy Hồ 2035m",
    "desc": "Thắng cảnh",
    "code": 39,
    "latitude": 22.3529382,
    "longitude": 103.765263
  },
  {
    "url": "1227e3a8-5203-4f9e-ac15-60ee43a50e8f.jpg",
    "title": "Sapa Heaven Gate",
    "desc": "Điểm thu hút khách du lịch",
    "code": 39,
    "latitude": 22.356178,
    "longitude": 103.761359
  },
  {
    "url": "94b9dd26-7db6-4dac-ae5e-ba740df4182a.jpg",
    "title": "TaVan Valley View",
    "desc": "Đẹp như tranh",
    "code": 39,
    "latitude": 22.298718,
    "longitude": 103.888387
  },
  {
    "url": "59049f8d-e9e4-4de2-ada5-1547433fb8e3.jpg",
    "title": "View Point",
    "desc": "Thắng cảnh",
    "code": 39,
    "latitude": 22.311770,
    "longitude": 103.860092
  },
  {
    "url": "4116401f-a3e3-4dc2-baa9-7364c62e5819.jpg",
    "title": "Kim Sơn Bảo Thắng Tự",
    "desc": "Bảo tàng",
    "code": 39,
    "latitude": 22.3034717,
    "longitude": 103.776295
  },
  {
    "url": "9215e3ca-c8a6-4620-aff4-af2ac38a060d.jpg",
    "title": "Cầu Mây cổ",
    "desc": "Điểm thu hút khách du lịch",
    "code": 39,
    "latitude": 22.294825,
    "longitude": 103.904810
  },
  {
    "url": "c7f847cc-47ce-4d1c-92a8-c4a7a5e77775.jpg",
    "title": "Bamboo Forest",
    "desc": "Điểm thu hút khách du lịch",
    "code": 39,
    "latitude": 22.295713,
    "longitude": 103.893174
  },
  {
    "url": "ea215a1c-c565-4e9a-b4d8-86ba8fe98369.jpg",
    "title": "vườn hồng cổ SAPA",
    "desc": "Khu bảo tồn quốc gia",
    "code": 39,
    "latitude": 22.3614418,
    "longitude": 103.8706165
  },
  {
    "url": "eaec8d09-2fb5-46e3-9b43-bf4a8f122b0d.jpg",
    "title": "Đền thờ Cô Bé Mướng Và Tả Van",
    "desc": "Chùa",
    "code": 39,
    "latitude": 22.3078031,
    "longitude": 103.8843228
  },
  {
    "url": "f5259837-99b5-4e31-9c67-64d3847d2a53.jpg",
    "title": "Cầu Treo Lao Chải",
    "desc": "Điểm thu hút khách du lịch",
    "code": 39,
    "latitude": 22.310021,
    "longitude": 103.875937
  }
]