[
  {
    "url": "5b6a31ea-bc0a-4a62-8584-4b73a2f08bf9.jpg",
    "title": "Đảo Tuần Châu",
    "desc": "Hòn đảo thích hợp để du lịch, vui chơi & tắm biển",
    "code": 41,
    "latitude": 20.9274495,
    "longitude": 106.9860384
  },
  {
    "url": "010a8d74-ee84-48e6-8215-3da41cb5825e.jpg",
    "title": "Vịnh Bái Tử Long",
    "desc": "Vịnh tuyệt đẹp với nhiều hòn đảo nhỏ",
    "code": 41,
    "latitude": 20.9257795,
    "longitude": 107.2548183
  },
  {
    "url": "a0540f06-9f2a-4f02-b3cd-0014a70a4111.jpg",
    "title": "Sun World Halong Complex",
    "desc": "Công viên với tàu lượn & màn trình diễn",
    "code": 41,
    "latitude": 20.9553865,
    "longitude": 107.0495176
  },
  {
    "url": "829c503b-e295-4c97-9cf5-d150156afa0f.jpg",
    "title": "Sun World Halong Park",
    "desc": "Công viên giải trí có tàu lượn, đường trượt nước",
    "code": 41,
    "latitude": 20.953077,
    "longitude": 107.050453
  },
  {
    "url": "79b4af92-2881-45dd-928d-21bda7d0aab8.jpg",
    "title": "Halong Park (Dragon Park)",
    "desc": "Công viên, công viên giải trí và công viên nước",
    "code": 41,
    "latitude": 20.9537499,
    "longitude": 107.0495142
  },
  {
    "url": "4af4dbb0-7704-4b09-a75d-77cba1f94d2f.jpg",
    "title": "Cáp treo Nữ Hoàng",
    "desc": "Cáp treo hai tầng vượt vịnh",
    "code": 41,
    "latitude": 20.9557388,
    "longitude": 107.0501107
  },
  {
    "url": "0c5769f3-f994-45c0-acf2-6a4fb8483985.jpg",
    "title": "Du thuyền Paradise Hạ Long",
    "desc": "Du ngoạn ban ngày & qua đêm nơi cảnh đẹp hùng vĩ",
    "code": 41,
    "latitude": 20.9171154,
    "longitude": 106.986488
  },
  {
    "url": "5fb47764-983d-4570-b2b7-2b220aef4036.jpg",
    "title": "Ba Trai Dao",
    "desc": "Bãi biển",
    "code": 41,
    "latitude": 20.7903319,
    "longitude": 107.102116
  },
  {
    "url": "2f478cb5-42ba-4114-9279-e182bb409e08.jpg",
    "title": "Typhoon Water Park Hạ Long",
    "desc": "Công viên nước và công viên",
    "code": 41,
    "latitude": 20.9537334,
    "longitude": 107.0513133
  },
  {
    "url": "0f106f7b-bb82-4e36-8ef3-b98bdbc88d05.jpg",
    "title": "Bãi tắm",
    "desc": "Bãi biển",
    "code": 41,
    "latitude": 20.943127,
    "longitude": 107.028969
  },
  {
    "url": "c9b48eed-8c2a-4ae0-a828-a10e10699558.jpg",
    "title": "Halong Majestic Cruise",
    "desc": "Điểm thu hút khách du lịch",
    "code": 41,
    "latitude": 20.953831,
    "longitude": 107.042374
  },
  {
    "url": "130065d9-c2b2-4dc7-93cd-ac31ebaf56bf.jpg",
    "title": "Bảo tàng Quảng Ninh",
    "desc": "Bảo tàng hiện đại về lịch sử Việt Nam",
    "code": 41,
    "latitude": 20.9487077,
    "longitude": 107.097508
  },
  {
    "url": "113e80a6-dc07-4b49-b6d1-7841e707377a.jpg",
    "title": "Halong Serenity Cruise",
    "desc": "Điểm quan tâm",
    "code": 41,
    "latitude": 20.920583,
    "longitude": 106.985309
  },
  {
    "url": "df52a86b-b181-49da-aee5-e6b1c7ad4b47.jpg",
    "title": "Chùa Long Tiên",
    "desc": "Đền, kiến trúc và lịch sử",
    "code": 41,
    "latitude": 20.9498069,
    "longitude": 107.0802208
  },
  {
    "url": "8565ce72-0d77-4d27-95d4-0bd4245c903d.jpg",
    "title": "Vòng quay Mặt Trời Hạ Long",
    "desc": "Công viên",
    "code": 41,
    "latitude": 20.9565163,
    "longitude": 107.0720301
  },
  {
    "url": "4bbb1bc2-007c-40fd-979e-39ac1af98f1e.jpg",
    "title": "Sun Wheel Hạ Long",
    "desc": "Vòng đu quay",
    "code": 41,
    "latitude": 20.9567417,
    "longitude": 107.0714537
  },
  {
    "url": "bb6c8382-45d3-4ede-ab20-a6a26e46e6f6.jpg",
    "title": "Chợ Hạ Long 2",
    "desc": "Chợ",
    "code": 41,
    "latitude": 20.9581484,
    "longitude": 107.0848775
  },
  {
    "url": "0039fd3a-13a1-4271-b82f-ac588e9804b3.jpg",
    "title": "Paradise Elegance Cruise Terminal",
    "desc": null,
    "code": 41,
    "latitude": 20.9220927,
    "longitude": 106.9914751
  },
  {
    "url": "e11ec7a3-5022-438b-9da2-f64610407175.jpg",
    "title": "Chợ Cái Dăm",
    "desc": "Hải sản",
    "code": 41,
    "latitude": 20.9556837,
    "longitude": 107.0227522
  },
  {
    "url": "b4201c81-b7c6-4294-8a8a-034878aaeb6e.jpg",
    "title": "Thiên Cảnh Sơn cave",
    "desc": "Điểm thu hút khách du lịch",
    "code": 41,
    "latitude": 20.8817676,
    "longitude": 107.169649
  },
  {
    "url": "fa4d6eda-1f95-4edd-8820-49f29f4893fd.jpg",
    "title": "Công Viên Dragon Park - Sun World Halong Complex",
    "desc": "Trò chơi cưỡi ngựa/lái xe ở công viên giải trí",
    "code": 41,
    "latitude": 20.9539754,
    "longitude": 107.0501218
  },
  {
    "url": "327fc431-b1fd-48c7-ab5f-5ae8d2d18bf0.jpg",
    "title": "Sun Premier Village Ha Long Bay",
    "desc": "Điểm thu hút khách du lịch",
    "code": 41,
    "latitude": 20.944086,
    "longitude": 107.0312977
  },
  {
    "url": "e6ad6c04-446f-453b-8baf-404e3b82fcf2.jpg",
    "title": "Cảng tàu khách Quốc tế Hạ Long - Halong International Cruise Port",
    "desc": "Công ty điều hành cảng",
    "code": 41,
    "latitude": 20.9530218,
    "longitude": 107.0560182
  },
  {
    "url": "574db814-9ffa-4ba2-9fdf-7678db2e283d.jpg",
    "title": "Vịnh Hạ Long",
    "desc": "Tự nhiên",
    "code": 41,
    "latitude": 20.9100512,
    "longitude": 107.1839024
  },
  {
    "url": "bb119cde-c184-4367-8aeb-3b37dce82300.jpg",
    "title": "Đảo Rều",
    "desc": "Đảo",
    "code": 41,
    "latitude": 20.9410884,
    "longitude": 107.0255243
  },
  {
    "url": "4327a844-f025-4308-9202-fcc658facd62.jpg",
    "title": "Garden Bay Cruise",
    "desc": "Điểm quan tâm",
    "code": 41,
    "latitude": 20.94963,
    "longitude": 107.072685
  },
  {
    "url": "d8948fa0-45fc-41c6-980d-dbe46d0931fa.jpg",
    "title": "Cầu Koi",
    "desc": "Điểm thu hút khách du lịch",
    "code": 41,
    "latitude": 20.9558434,
    "longitude": 107.0727006
  },
  {
    "url": "ed426d37-73c4-47fc-82c6-32ee551e0959.jpg",
    "title": "Đảo Mắt Rồng",
    "desc": "Điểm quan tâm",
    "code": 41,
    "latitude": 20.772955,
    "longitude": 107.183896
  },
  {
    "url": "5dfbfcd5-e93d-4883-87cf-98d4d72ac01e.jpg",
    "title": "Cột đồng hồ",
    "desc": "Lịch sử",
    "code": 41,
    "latitude": 20.9517174,
    "longitude": 107.0852037
  },
  {
    "url": "36e2e216-85fa-4d1c-a12d-169b2bee5a14.jpg",
    "title": "Đền Đức ông Trần Quốc Nghiễn",
    "desc": "Nơi thờ cúng",
    "code": 41,
    "latitude": 20.9475228,
    "longitude": 107.0750606
  },
  {
    "url": "2ff6a81b-fd39-453a-8e90-9ee4f5feac40.jpg",
    "title": "Cable Car",
    "desc": "Công viên giải trí",
    "code": 41,
    "latitude": 20.956737,
    "longitude": 107.071064
  },
  {
    "url": "e3a3a870-8bb4-4063-8ef0-43735233c236.jpg",
    "title": "Ngọc Vừng Beach",
    "desc": "Bãi biển",
    "code": 41,
    "latitude": 20.8080598,
    "longitude": 107.356592
  },
  {
    "url": "ed2fb119-3d53-4477-a0ed-6cf1cad701dc.jpg",
    "title": "Royal Villas",
    "desc": "Điểm thu hút khách du lịch",
    "code": 41,
    "latitude": 20.951110,
    "longitude": 107.036111
  },
  {
    "url": "9ebb4d31-366f-4985-9a30-559c8ee1f3e8.jpg",
    "title": "Dark and Bright Caves",
    "desc": "Khu bảo tồn thiên nhiên",
    "code": 41,
    "latitude": 20.8005434,
    "longitude": 107.0978343
  },
  {
    "url": "cb416020-2516-420d-95f9-1d590d99e2fa.jpg",
    "title": "Núi Bài Thơ",
    "desc": "Đỉnh núi",
    "code": 41,
    "latitude": 20.947581,
    "longitude": 107.078305
  },
  {
    "url": "c254a9a9-933c-4649-af9b-b06c57d7cbfa.jpg",
    "title": "H.Vụng Hà",
    "desc": "Đảo",
    "code": 41,
    "latitude": 20.8324508,
    "longitude": 107.1676537
  },
  {
    "url": "22e72c7e-4edf-469f-8d8a-3647b5e67ef3.jpg",
    "title": "Cống Yên",
    "desc": "Đảo",
    "code": 41,
    "latitude": 20.8512757,
    "longitude": 107.3446003
  },
  {
    "url": "ca52f18d-6648-4f47-9f0e-6a43df388bef.jpg",
    "title": "hòn Vông Viêng",
    "desc": "Đảo",
    "code": 41,
    "latitude": 20.8402257,
    "longitude": 107.1550986
  },
  {
    "url": "6937548e-91e2-45d7-bd6c-000e7507d425.jpg",
    "title": "Vịnh Cửa Lục",
    "desc": "Vịnh",
    "code": 41,
    "latitude": 20.9862469,
    "longitude": 107.0598491
  },
  {
    "url": "78f46ac3-16f7-4042-9a3d-f8f4f1a65cc5.jpg",
    "title": "Công viên Đại Dương Hạ Long Complex",
    "desc": "Công viên",
    "code": 41,
    "latitude": 20.950384,
    "longitude": 107.0407412
  },
  {
    "url": "27174946-accb-460f-8209-0dbfee516b06.jpg",
    "title": "Công Viên Hoa Hạ Long",
    "desc": "Công viên",
    "code": 41,
    "latitude": 20.9506872,
    "longitude": 107.0891311
  }
]