[
  {
    "url": "93edb27b-ddf4-48b5-9196-e5ee2e082303.jpg",
    "title": "Bãi biển Cửa Lò",
    "desc": "Bãi biển ở thị trấn nghỉ dưỡng và khách sạn",
    "code": 40,
    "latitude": 18.7784704,
    "longitude": 105.7486874
  },
  {
    "url": "eb624fda-2ed4-4c2b-9160-925690dd76a3.jpg",
    "title": "Đền Ông Hoàng Mười",
    "desc": "Đền",
    "code": 40,
    "latitude": 18.6410069,
    "longitude": 105.6913242
  },
  {
    "url": "8d2a1047-075a-413c-b302-b40554524089.jpg",
    "title": "Quảng trường Hồ Chí Minh",
    "desc": "Quảng trường",
    "code": 40,
    "latitude": 18.6705245,
    "longitude": 105.6903787
  },
  {
    "url": "e499330d-7f12-42c5-bbc8-04f60b42b858.jpg",
    "title": "Núi Quyết | Đền Thờ Vua Quang Trung",
    "desc": "Nơi thờ cúng",
    "code": 40,
    "latitude": 18.6484635,
    "longitude": 105.6964633
  },
  {
    "url": "222fe990-25ec-431a-8e68-ec61efbbaa2a.jpg",
    "title": "Thành cổ Vinh",
    "desc": "Mốc lịch sử",
    "code": 40,
    "latitude": 18.6703526,
    "longitude": 105.6693819
  },
  {
    "url": "49bdbf77-7f1b-4a45-b869-ba68ee4d0163.jpg",
    "title": "Đảo Lan Châu",
    "desc": "Đảo",
    "code": 40,
    "latitude": 18.8202715,
    "longitude": 105.7220978
  },
  {
    "url": "a0cd1e9a-2a61-466f-afab-3eb114a2ab4d.jpg",
    "title": "Bảo tàng Xô Viết Nghệ Tĩnh",
    "desc": "Viện bảo tàng và lịch sử",
    "code": 40,
    "latitude": 18.6717967,
    "longitude": 105.6693491
  },
  {
    "url": "76ebdb62-f6c7-4c4e-ac96-3d73a945522b.jpg",
    "title": "Đền thờ Vua Quang Trung",
    "desc": "Đền",
    "code": 40,
    "latitude": 18.6484215,
    "longitude": 105.6962905
  },
  {
    "url": "32eeb745-4ba6-4ae2-b81a-8ddaa7cf7088.jpg",
    "title": "Đền Hồng Sơn",
    "desc": "Đền",
    "code": 40,
    "latitude": 18.6647042,
    "longitude": 105.6718632
  },
  {
    "url": "5968d225-369a-44ea-b5fe-4b471fecd52c.jpg",
    "title": "Đền Làng Rào",
    "desc": "Lịch sử",
    "code": 40,
    "latitude": 18.6604676,
    "longitude": 105.6200916
  },
  {
    "url": "3bf1f1d3-81ec-424a-9122-045213bc4d99.jpg",
    "title": "Khu lưu niệm Đại thi hào Nguyễn Du",
    "desc": "Nơi thờ cúng",
    "code": 40,
    "latitude": 18.6649985,
    "longitude": 105.7668101
  },
  {
    "url": "295144ef-7d6e-4122-b2d4-57ce0990c2ca.jpg",
    "title": "Khu du lịch sinh thái nhà vườn Đức Đường",
    "desc": "Điểm thu hút khách du lịch",
    "code": 40,
    "latitude": 18.5867627,
    "longitude": 105.7523624
  }
]